<settings>
<servers>
<server url="http://mtldjspeedtest01.srvr.bell.ca:8080/speedtest/upload.php" lat="45.5017" lon="-73.5673" name="Montreal, QC" country="Canada" cc="CA" sponsor="Bell Mobility" id="16754" host="mtldjspeedtest01.srvr.bell.ca:8080"/>
<server url="http://montreal2.speedtest.telus.com:8080/speedtest/upload.php" lat="45.5017" lon="-73.5673" name="Montreal, QC" country="Canada" cc="CA" sponsor="TELUS Mobility" id="24707" host="montreal2.speedtest.telus.com:8080"/>
<server url="http://srv12.mtlcx03.fibrenoire.ca:8080/speedtest/upload.php" lat="45.5017" lon="-73.5673" name="Montreal, QC" country="Canada" cc="CA" sponsor="Fibrenoire Internet" id="911" host="srv12.mtlcx03.fibrenoire.ca:8080"/>
<server url="http://montreal.speedtest.telus.com:8080/speedtest/upload.php" lat="45.5017" lon="-73.5673" name="Montreal, QC" country="Canada" cc="CA" sponsor="TELUS" id="4393" host="montreal.speedtest.telus.com:8080"/>
<server url="http://speedtest.openface.com:8080/speedtest/upload.php" lat="45.5017" lon="-73.5673" name="Montreal, QC" country="Canada" cc="CA" sponsor="Beanfield Montreal 10G" id="12100" host="speedtest.openface.com:8080"/>
<server url="http://speedtestqcmtl.rogers.com:8080/speedtest/upload.php" lat="45.5017" lon="-73.5673" name="Montreal, QC" country="Canada" cc="CA" sponsor="Rogers" id="8825" host="speedtestqcmtl.rogers.com:8080"/>
<server url="http://speed.elpcinc.com:8080/speedtest/upload.php" lat="45.5017" lon="-73.5673" name="Montreal, QC" country="Canada" cc="CA" sponsor="ELPC" id="32904" host="speed.elpcinc.com:8080"/>
<server url="http://speedtest.hotservers.net:8080/speedtest/upload.php" lat="45.5017" lon="-73.5673" name="Montreal, QC" country="Canada" cc="CA" sponsor="HOTServers LLC" id="6689" host="speedtest.hotservers.net:8080"/>
<server url="http://speedtest.airvitesse.net:8080/speedtest/upload.php" lat="45.5017" lon="-73.5673" name="Montreal, QC" country="Canada" cc="CA" sponsor="airVitesse" id="29136" host="speedtest.airvitesse.net:8080"/>
<server url="http://speed.gemstelecom.com:8080/speedtest/upload.php" lat="45.5017" lon="-73.5673" name="Montreal, QC" country="Canada" cc="CA" sponsor="GEMSTELECOM" id="33945" host="speed.gemstelecom.com:8080"/>
<server url="http://speedtest.ebox.ca:8080/speedtest/upload.php" lat="45.5017" lon="-73.5673" name="Montreal, QC" country="Canada" cc="CA" sponsor="EBOX" id="1993" host="speedtest.ebox.ca:8080"/>
<server url="http://speedtest.connexio.ca:8080/speedtest/upload.php" lat="45.5017" lon="-73.5673" name="Montreal, QC" country="Canada" cc="CA" sponsor="Connexio" id="31838" host="speedtest.connexio.ca:8080"/>
<server url="http://speedtestqcmtlwireless.rogers.com:8080/speedtest/upload.php" lat="45.5017" lon="-73.5673" name="Montreal, QC" country="Canada" cc="CA" sponsor="Rogers Wireless" id="37271" host="speedtestqcmtlwireless.rogers.com:8080"/>
<server url="http://speedtest.as54509.net:8080/speedtest/upload.php" lat="45.5017" lon="-73.5673" name="Montreal, QC" country="Canada" cc="CA" sponsor="Connect it Networks" id="37555" host="speedtest.as54509.net:8080"/>
<server url="http://diagsvr-875.b2b2c.ca:8080/speedtest/upload.php" lat="45.5017" lon="-73.5673" name="Montreal, QC" country="Canada" cc="CA" sponsor="B2B2C" id="37651" host="diagsvr-875.b2b2c.ca:8080"/>
<server url="http://speedtest-mtl.teksavvy.com:8080/speedtest/upload.php" lat="45.5017" lon="-73.5673" name="Montreal, QC" country="Canada" cc="CA" sponsor="Teksavvy Solutions Inc." id="32068" host="speedtest-mtl.teksavvy.com:8080"/>
<server url="http://speedtest.altimatel.com:8080/speedtest/upload.php" lat="45.5017" lon="-73.5673" name="Montreal, QC" country="Canada" cc="CA" sponsor="Altima Telecom 10G" id="38690" host="speedtest.altimatel.com:8080"/>
<server url="http://speedtest0.jafica.com:8080/speedtest/upload.php" lat="45.5017" lon="-73.5673" name="Montreal, QC" country="Canada" cc="CA" sponsor="Jafica Telecomunicaciones SAS de CV" id="40155" host="speedtest0.jafica.com:8080"/>
<server url="http://mtl42spd01.srvr.bell.ca:8080/speedtest/upload.php" lat="45.6066" lon="-73.7124" name="Laval, QC" country="Canada" cc="CA" sponsor="Bell Mobility" id="36252" host="mtl42spd01.srvr.bell.ca:8080"/>
<server url="http://mtl02spd01.srvr.bell.ca:8080/speedtest/upload.php" lat="45.5700" lon="-73.7500" name="Laval, QC" country="Canada" cc="CA" sponsor="Bell Canada" id="17567" host="mtl02spd01.srvr.bell.ca:8080"/>
<server url="http://speedtest.mtl.telkel.ca:8080/speedtest/upload.php" lat="45.5700" lon="-73.7500" name="Laval, QC" country="Canada" cc="CA" sponsor="TelKel" id="6835" host="speedtest.mtl.telkel.ca:8080"/>
<server url="http://speedtest1.mtl.qc.convergia.ca:8080/speedtest/upload.php" lat="45.4500" lon="-73.8167" name="Pointe-Claire, QC" country="Canada" cc="CA" sponsor="Convergia Networks Inc" id="7015" host="speedtest1.mtl.qc.convergia.ca:8080"/>
<server url="http://speedtest.ihrtelecom.com:8080/speedtest/upload.php" lat="45.3058" lon="-73.2545" name="Saint-Jean-sur-Richelieu, QC" country="Canada" cc="CA" sponsor="IHR Télécom" id="34011" host="speedtest.ihrtelecom.com:8080"/>
<server url="http://speedtest.hostix.ca:8080/speedtest/upload.php" lat="45.3058" lon="-73.2545" name="Saint-Jean-Sur-Richelieu, QC" country="Canada" cc="CA" sponsor="Hostix Technologies Inc." id="38600" host="speedtest.hostix.ca:8080"/>
<server url="http://speedtest-bhs.as16276.ovh:8080/speedtest/upload.php" lat="45.3151" lon="-73.8779" name="Beauharnois, QC" country="Canada" cc="CA" sponsor="OVH Cloud" id="25984" host="speedtest-bhs.as16276.ovh:8080"/>
<server url="http://sp2.caramania.net:8080/speedtest/upload.php" lat="45.3151" lon="-73.8779" name="Beauharnois, QC" country="Canada" cc="CA" sponsor="Caramania.Ca" id="30991" host="sp2.caramania.net:8080"/>
<server url="http://speedtest.f0o.net:8080/speedtest/upload.php" lat="45.3151" lon="-73.8779" name="Beauharnois, QC" country="Canada" cc="CA" sponsor="f0onet" id="37140" host="speedtest.f0o.net:8080"/>
<server url="http://netsplit.calmdowngeek.net:8080/speedtest/upload.php" lat="45.3151" lon="-73.8779" name="Beauharnois, QC" country="Canada" cc="CA" sponsor="CalmDownGeek" id="37607" host="netsplit.calmdowngeek.net:8080"/>
<server url="http://backupus.beon.co.id:8080/speedtest/upload.php" lat="45.3151" lon="-73.8779" name="Beauharnois, QC" country="Canada" cc="CA" sponsor="PT Beon Intermedia" id="38464" host="backupus.beon.co.id:8080"/>
<server url="http://speed.fibreargenteuil.ca:8080/speedtest/upload.php" lat="45.6521" lon="-74.3398" name="Lachute, QC" country="Canada" cc="CA" sponsor="Fibre Argenteuil" id="39286" host="speed.fibreargenteuil.ca:8080"/>
<server url="http://speedtest.internexe.net:8080/speedtest/upload.php" lat="45.2199" lon="-72.5119" name="Knowlton, QC" country="Canada" cc="CA" sponsor="Internexe" id="11018" host="speedtest.internexe.net:8080"/>
<server url="http://speedtest.cooptel.ca:8080/speedest/upload.php" lat="45.4924" lon="-72.3150" name="Valcourt, QC" country="Canada" cc="CA" sponsor="Cooptel" id="29035" host="speedtest.cooptel.ca:8080"/>
<server url="http://speedtest.sogetel.net:8080/speedtest/upload.php" lat="46.2274" lon="-72.6192" name="Nicolet, QC" country="Canada" cc="CA" sponsor="Sogetel" id="17024" host="speedtest.sogetel.net:8080"/>
<server url="http://speedtest.primelink1.net:8080/speedtest/upload.php" lat="44.6995" lon="-73.4529" name="Plattsburgh, NY" country="United States" cc="US" sponsor="Primelink" id="25598" host="speedtest.primelink1.net:8080"/>
<server url="http://vitesse.cogeco.ca:8080/speedtest/upload.php" lat="46.3430" lon="-72.5421" name="Trois-Rivières, QC" country="Canada" cc="CA" sponsor="Cogeco Connexion Inc." id="17823" host="vitesse.cogeco.ca:8080"/>
<server url="http://rubidium.burlingtontelecom.net:8080/speedtest/upload.php" lat="44.4667" lon="-73.1500" name="Burlington, VT" country="United States" cc="US" sponsor="Burlington Telecom" id="17193" host="rubidium.burlingtontelecom.net:8080"/>
<server url="http://speed.gmavt.net:8080/speedtest/upload.php" lat="44.4047" lon="-72.9903" name="Richmond, VT" country="United States" cc="US" sponsor="Green Mountain Access" id="4405" host="speed.gmavt.net:8080"/>
<server url="http://speedtest.slic.com:8080/speedtest/upload.php" lat="44.6977" lon="-74.6582" name="Nicholville, NY" country="United States" cc="US" sponsor="Slic Network Solutions" id="21062" host="speedtest.slic.com:8080"/>
<server url="http://speedtest.clarkson.edu:8080/speedtest/upload.php" lat="44.6698" lon="-74.9813" name="Potsdam, NY" country="US" cc="US" sponsor="Clarkson University" id="16610" host="speedtest.clarkson.edu:8080"/>
<server url="http://test.slic.com:8080/speedtest/upload.php" lat="44.6698" lon="-74.9813" name="Potsdam, NY" country="United States" cc="US" sponsor="Slic Network Solutions" id="8573" host="test.slic.com:8080"/>
<server url="http://otw23spd01.srvr.bell.ca:8080/speedtest/upload.php" lat="45.4167" lon="-75.7000" name="Ottawa, ON" country="Canada" cc="CA" sponsor="Bell Canada" id="17396" host="otw23spd01.srvr.bell.ca:8080"/>
<server url="http://speedtestslnt.rogers.com:8080/speedtest/upload.php" lat="45.4167" lon="-75.7000" name="Ottawa, ON" country="Canada" cc="CA" sponsor="Rogers" id="18556" host="speedtestslnt.rogers.com:8080"/>
<server url="http://mobilityooklaottawa.srvr.bell.ca:8080/speedtest/upload.php" lat="45.4167" lon="-75.7000" name="Ottawa, ON" country="Canada" cc="CA" sponsor="Bell Mobility" id="38374" host="mobilityooklaottawa.srvr.bell.ca:8080"/>
<server url="http://speedtest.ecfaccess.net:8080/speedtest/upload.php" lat="43.8205" lon="-72.5213" name="South Royalton, VT" country="United States" cc="US" sponsor="ECFiber" id="16034" host="speedtest.ecfaccess.net:8080"/>
<server url="http://perfsonar-test.dartmouth.edu:8080/speedtest/upload.php" lat="43.7022" lon="-72.2896" name="Hanover, NH" country="United States" cc="US" sponsor="Dartmouth College" id="12904" host="perfsonar-test.dartmouth.edu:8080"/>
<server url="http://speed-test.westelcom.com:8080/speedtest/upload.php" lat="43.9748" lon="-75.9108" name="Watertown, NY" country="United States" cc="US" sponsor="Westelcom" id="20808" host="speed-test.westelcom.com:8080"/>
<server url="http://speedtest.wtccommunications.ca:8080/speedtest/upload.php" lat="44.2300" lon="-76.5000" name="Kingston, ON" country="Canada" cc="CA" sponsor="WTC Communications" id="1300" host="speedtest.wtccommunications.ca:8080"/>
<server url="http://speedtestdsdeslnt.rogers.com:8080/speedtest/upload.php" lat="44.2300" lon="-76.5000" name="Kingston, ON" country="Canada" cc="CA" sponsor="Rogers" id="38373" host="speedtestdsdeslnt.rogers.com:8080"/>
<server url="http://speedtest.sdd.fibercast.net:8080/speedtest/upload.php" lat="43.0787" lon="-72.1145" name="Stoddard, NH" country="United States" cc="US" sponsor="FiberCast" id="38849" host="speedtest.sdd.fibercast.net:8080"/>
<server url="http://gstnetworks.net:8080/speedtest/upload.php" lat="43.0948" lon="-71.7306" name="Weare, NH" country="United States" cc="US" sponsor="Granite State Communications" id="12530" host="gstnetworks.net:8080"/>
<server url="http://speedtest-utc1.northland.net:8080/speedtest/upload.php" lat="43.1009" lon="-75.2327" name="Utica, NY" country="United States" cc="US" sponsor="Northland Communications" id="8444" host="speedtest-utc1.northland.net:8080"/>
<server url="http://speedtest.massivemesh.com:8080/speedtest/upload.php" lat="42.7284" lon="-73.6918" name="Troy, NY" country="United States" cc="US" sponsor="MassiveMesh Networks" id="27111" host="speedtest.massivemesh.com:8080"/>
<server url="http://speedtest.inoc.net:8080/speedtest/upload.php" lat="42.6525" lon="-73.7572" name="Albany, NY" country="United States" cc="US" sponsor="INOC Data Centers" id="5723" host="speedtest.inoc.net:8080"/>
<server url="http://speedtest.turnkeyinternet.net:8080/speedtest/upload.php" lat="42.6525" lon="-73.7572" name="Albany, NY" country="United States" cc="US" sponsor="TurnKey Internet, Inc." id="10292" host="speedtest.turnkeyinternet.net:8080"/>
<server url="http://speedtest01-cty-gfld-ma-prod.gcet.net:8080/speedtest/upload.php" lat="42.5879" lon="-72.5994" name="Greenfield, MA" country="United States" cc="US" sponsor="GCET" id="34463" host="speedtest01-cty-gfld-ma-prod.gcet.net:8080"/>
<server url="http://corp.beyondnerd.net:8080/speedtest/upload.php" lat="43.1763" lon="-76.1142" name="Cicero, NY" country="United States" cc="US" sponsor="BeyondNerd" id="34833" host="corp.beyondnerd.net:8080"/>
<server url="http://speedtest1.tidewater.net:8080/speedtest/upload.php" lat="44.0796" lon="-69.4852" name="Nobleboro, ME" country="United States" cc="US" sponsor="Coastal Telco Services" id="32450" host="speedtest1.tidewater.net:8080"/>
<server url="http://speedtest.nyroc.rr.com:8080/speedtest/upload.php" lat="43.0469" lon="-76.1444" name="Syracuse, NY" country="United States" cc="US" sponsor="Time Warner Cable" id="6989" host="speedtest.nyroc.rr.com:8080"/>
<server url="http://speedtest-syr1.northland.net:8080/speedtest/upload.php" lat="43.0469" lon="-76.1444" name="Syracuse, NY" country="United States" cc="US" sponsor="Northland Communications" id="7093" host="speedtest-syr1.northland.net:8080"/>
<server url="http://speedtest.nyroc.rr.com:8080/speedtest/upload.php" lat="43.0469" lon="-76.1444" name="Syracuse, NY" country="United States" cc="US" sponsor="Spectrum" id="16978" host="speedtest.nyroc.rr.com:8080"/>
<server url="http://speedtest.mhcable.com:8080/speedtest/upload.php" lat="42.2257" lon="-73.7429" name="Hudson, NY" country="United States" cc="US" sponsor="Mid-Hudson Cablevision" id="33195" host="speedtest.mhcable.com:8080"/>
<server url="http://speedtest.ottcommunications.com:8080/speedtest/upload.php" lat="44.7807" lon="-68.7351" name="Bangor, ME" country="United States" cc="US" sponsor="Otelco" id="8319" host="speedtest.ottcommunications.com:8080"/>
<server url="http://spt01oxfrma.oxfr.ma.charter.com:8080/speedtest/upload.php" lat="42.1852" lon="-72.5636" name="Oxford, MA" country="United States" cc="US" sponsor="Spectrum" id="2405" host="spt01oxfrma.oxfr.ma.charter.com:8080"/>
<server url="http://speedtest.townisp.com:8080/speedtest/upload.php" lat="42.2958" lon="-71.7133" name="Shrewsbury, MA" country="United States" cc="US" sponsor="SELCO" id="4981" host="speedtest.townisp.com:8080"/>
<server url="http://ookla1.spfdma.sprintadp.net:8080/speedtest/upload.php" lat="42.1015" lon="-72.5898" name="Springfield, MA" country="United States" cc="US" sponsor="Sprint" id="15788" host="ookla1.spfdma.sprintadp.net:8080"/>
<server url="http://mtcspeedtest.catskill.net:8080/speedtest/upload.php" lat="42.1487" lon="-74.6482" name="Margaretville, NY" country="United States" cc="US" sponsor="MTC" id="21480" host="mtcspeedtest.catskill.net:8080"/>
<server url="http://speed0.xcelx.net:8080/speedtest/upload.php" lat="42.3875" lon="-71.1000" name="Somerville, MA" country="United States" cc="US" sponsor="netBlazr" id="5960" host="speed0.xcelx.net:8080"/>
<server url="http://stosat-ndhm-01.sys.comcast.net:8080/speedtest/upload.php" lat="42.3578" lon="-71.0617" name="Boston, MA" country="United States" cc="US" sponsor="Comcast" id="1774" host="stosat-ndhm-01.sys.comcast.net:8080"/>
<server url="http://speedtest-server.starry.com:8080/speedtest/upload.php" lat="42.3578" lon="-71.0617" name="Boston, MA" country="United States" cc="US" sponsor="Starry, Inc." id="13429" host="speedtest-server.starry.com:8080"/>
<server url="http://speedtest.bos01.infrastructure.iboss.cloud:8080/speedtest/upload.php" lat="42.3578" lon="-71.0617" name="Boston, MA" country="United States" cc="US" sponsor="iboss" id="25323" host="speedtest.bos01.infrastructure.iboss.cloud:8080"/>
<server url="http://speedtest.norwoodlight.com:8080/speedtest/upload.php" lat="42.1944" lon="-71.2000" name="Norwood, MA" country="United States" cc="US" sponsor="Norwood Light Broadband" id="4920" host="speedtest.norwoodlight.com:8080"/>
<server url="http://speedtest.beld.net:8080/speedtest/upload.php" lat="42.2079" lon="-71.0040" name="Braintree, MA" country="United States" cc="US" sponsor="BELD Broadband" id="27031" host="speedtest.beld.net:8080"/>
<server url="http://speedtestmeck.clarityconnect.com:8080/speedtest/upload.php" lat="42.4440" lon="-76.5019" name="Ithaca, NY" country="United States" cc="US" sponsor="Clarity Connect" id="38926" host="speedtestmeck.clarityconnect.com:8080"/>
<server url="http://rochester.ny.speedtest.frontier.com:8080/speedtest/upload.php" lat="43.1566" lon="-77.6088" name="Rochester, NY" country="United States" cc="US" sponsor="Frontier" id="14233" host="rochester.ny.speedtest.frontier.com:8080"/>
<server url="http://speedtest.rit.edu:8080/speedtest/upload.php" lat="43.1566" lon="-77.6088" name="Rochester, NY" country="United States" cc="US" sponsor="Rochester Institute of Technology" id="14148" host="speedtest.rit.edu:8080"/>
<server url="http://speedtest-roc.synoptekcloud.com:8080/speedtest/upload.php" lat="43.1566" lon="-77.6088" name="Rochester, NY" country="United States" cc="US" sponsor="Synoptek" id="1239" host="speedtest-roc.synoptekcloud.com:8080"/>
<server url="http://speedtest.net.rochester.edu:8080/speedtest/upload.php" lat="43.1566" lon="-77.6088" name="Rochester, NY" country="United States" cc="US" sponsor="University of Rochester" id="39474" host="speedtest.net.rochester.edu:8080"/>
<server url="http://speedtest.cen.ct.gov:8080/speedtest/upload.php" lat="41.7636" lon="-72.6856" name="Hartford, CT" country="United States" cc="US" sponsor="Connecticut Education Network" id="3311" host="speedtest.cen.ct.gov:8080"/>
<server url="http://netgauge.i-zoom.net:8080/speedtest/upload.php" lat="44.5370" lon="-78.7361" name="Fenelon Falls, ON" country="Canada" cc="CA" sponsor="Cable Cable Inc" id="16300" host="netgauge.i-zoom.net:8080"/>
<server url="http://pqi.pwless.net:8080/speedtest/upload.php" lat="46.6793" lon="-68.0022" name="Presque Isle, ME" country="United States" cc="US" sponsor="Pioneer Wireless" id="534" host="pqi.pwless.net:8080"/>
<server url="http://speedtest.plexicomm.net:8080/speedtest/upload.php" lat="42.0986" lon="-75.9183" name="Binghamton, NY" country="United States" cc="US" sponsor="Plexicomm, LLC" id="3156" host="speedtest.plexicomm.net:8080"/>
<server url="http://speedtestfognob.clarityconnect.com:8080/speedtest/upload.php" lat="42.3471" lon="-76.5951" name="Newfield, NY" country="United States" cc="US" sponsor="Point Broadband" id="38942" host="speedtestfognob.clarityconnect.com:8080"/>
<server url="http://sp1.acel.la:8080/speedtest/upload.php" lat="42.0715" lon="-70.8092" name="Pembroke, MA" country="United States" cc="US" sponsor="Acella Construction" id="35437" host="sp1.acel.la:8080"/>
<server url="http://st1.htva.net:8080/speedtest/upload.php" lat="42.2100" lon="-76.4900" name="Spencer, NY" country="United States" cc="US" sponsor="Haefele Connect" id="8353" host="st1.htva.net:8080"/>
<server url="http://speedtest.rd.ri.cox.net:8080/speedtest/upload.php" lat="41.8239" lon="-71.4128" name="Providence, RI" country="United States" cc="US" sponsor="Cox - New England" id="16614" host="speedtest.rd.ri.cox.net:8080"/>
<server url="http://speedtest.empireaccess.com:8080/speedtest/upload.php" lat="42.5236" lon="-77.2891" name="Prattsburgh, NY" country="United States" cc="US" sponsor="Empire Access" id="24883" host="speedtest.empireaccess.com:8080"/>
<server url="http://wallingford.ct.speedtest.frontier.com:8080/speedtest/upload.php" lat="41.4570" lon="-72.8230" name="Wallingford, CT" country="United States" cc="US" sponsor="Frontier" id="14235" host="wallingford.ct.speedtest.frontier.com:8080"/>
<server url="http://speedtest.lakelandnetworks.com:8080/speedtest/upload.php" lat="45.0390" lon="-79.3079" name="Bracebridge, ON" country="Canada" cc="CA" sponsor="Lakeland Networks" id="24474" host="speedtest.lakelandnetworks.com:8080"/>
<server url="http://speedtest.fullchannel.net:8080/speedtest/upload.php" lat="41.7304" lon="-71.2825" name="Warren, RI" country="United States" cc="US" sponsor="i3 Broadband" id="29122" host="speedtest.fullchannel.net:8080"/>
<server url="http://speedtest.compton.net:8080/speedtest/upload.php" lat="44.1050" lon="-78.9441" name="Port Perry, ON" country="Canada" cc="CA" sponsor="Compton.net" id="16048" host="speedtest.compton.net:8080"/>
<server url="http://speedtest1.whsdk12.net:8080/speedtest/upload.php" lat="41.5742" lon="-75.2558" name="Honesdale, PA" country="United States" cc="US" sponsor="Wayne Highlands School District" id="7788" host="speedtest1.whsdk12.net:8080"/>
<server url="http://speedtest.oshean.org:8080/speedtest/upload.php" lat="41.5568" lon="-71.4537" name="North Kingstown, RI" country="United States" cc="US" sponsor="OSHEAN, Inc" id="13111" host="speedtest.oshean.org:8080"/>
<server url="http://speedtestdsdeajax.rogers.com:8080/speedtest/upload.php" lat="43.8509" lon="-79.0204" name="Ajax, ON" country="Canada" cc="CA" sponsor="Rogers" id="38269" host="speedtestdsdeajax.rogers.com:8080"/>
<server url="http://fish.tvcconnect.net:8080/speedtest/upload.php" lat="41.3497" lon="-72.0791" name="Groton, CT" country="United States" cc="US" sponsor="Thames Valley Communications" id="12727" host="fish.tvcconnect.net:8080"/>
<server url="http://rimouski.speedtest.telus.com:8080/speedtest/upload.php" lat="48.4333" lon="-68.5167" name="Rimouski, QC" country="Canada" cc="CA" sponsor="TELUS" id="3683" host="rimouski.speedtest.telus.com:8080"/>
<server url="http://speedtestdsdegrnsbr.rogers.com:8080/speedtest/upload.php" lat="43.9065" lon="-79.2508" name="Greensboro, ON" country="Canada" cc="CA" sponsor="Rogers" id="38367" host="speedtestdsdegrnsbr.rogers.com:8080"/>
<server url="http://speedtestdsdemtmc.rogers.com:8080/speedtest/upload.php" lat="43.8561" lon="-79.3370" name="Markham, ON" country="Canada" cc="CA" sponsor="Rogers" id="38371" host="speedtestdsdemtmc.rogers.com:8080"/>
<server url="http://speedtestdsdemtnk.rogers.com:8080/speedtest/upload.php" lat="44.0592" lon="-79.4613" name="Newmarket, ON" country="Canada" cc="CA" sponsor="Rogers" id="38372" host="speedtestdsdemtnk.rogers.com:8080"/>
<server url="http://speedtest.us-east-02.greenhousedata.com:8080/speedtest/upload.php" lat="41.0465" lon="-73.9496" name="Orangeburg, NY" country="United States" cc="US" sponsor="Lunavi Organization" id="13669" host="speedtest.us-east-02.greenhousedata.com:8080"/>
<server url="http://speedtest-central.eastlink.ca:8080/speedtest/upload.php" lat="44.3900" lon="-79.6860" name="Barrie, ON" country="Canada" cc="CA" sponsor="Eastlink" id="11639" host="speedtest-central.eastlink.ca:8080"/>
</servers>
</settings>